Name ,Description,Latitude ,Longitude ,InfoURL,ImageURL
Stearns Wharf,"Located at the end of State Street of Downtown SB, there are many restaurants and shops on the boardwalk including a Museum of Natural History ",34.40994233,-119.6857517,https://santabarbaraca.com/businesses/stearns-wharf/,https://cheshirecat.com/images/blogs/headers/header15-stearnswharf.jpg
Blenders In The Grass,"A drink place located all over SB that serves very nutritious juice, smoothie, and bowls.",34.41324202,-119.8565865,https://www.drinkblenders.com/,https://ctycms.com/ca-santa-barbara/images/blenders.png
Campus Point,"Located at UCSB, it is a popular spot for people to stroll along the beach and surfers to in the area",34.40439442,-119.8442658,https://www.santabarbara.com/activities/beaches/isla-vista/campus-point-beach/,https://cio.ucop.edu/wp-content/uploads/2019/08/campus-point-uc-santa-barbara-new-1000x464.jpg
Trader Joe's,Popular grocery shop that has affordable and unique snacks / meals ,34.4406773,-119.8252434,https://www.traderjoes.com/home,https://contentstatic.com/922b112e-a63c-43a0-8499-0f1ea6134e66.jpeg
Renaud's Patisserie & Bistro,"Founded in 2008, this place is known for quality French Pastries, Croissants, Cakes and more!",34.42536678,-119.7059146,https://renaudsbistro.com/,https://cdn.shopify.com/s/files/1/0194/9971/2574/files/IMG_3171_2048x.jpg?v=1571806857
UCSB,A great university located along the California coast!,34.416929,-119.845991,https://en.wikipedia.org/wiki/University_of_California,https://www.news.ucsb.edu/sites/default/files/styles/article_horizontal/public/images/2017/ucsb-campus-storke-bike-circle-ucen-ocean.jpg?itok=5yKUgoUb
